City_ID,City,Lat,Lng,Max Temp,Humidity,Cloudiness,Wind Speed,Country,Date
0,flying fish cove,-10.4217,105.6791,27.82,69,75,6.17,CX,1722228974
1,zemio,5.0314,25.1361,21.19,96,98,0.59,CF,1722228976
2,letlhakane,-21.4167,25.5833,8.04,33,0,4.65,BW,1722228977
3,longyearbyen,78.2186,15.6401,8.91,93,100,4.63,SJ,1722228978
4,bilibino,68.0546,166.4372,10.66,75,97,2.22,RU,1722228646
5,tura,25.5198,90.2201,30.99,70,100,2.45,IN,1722228980
6,tayoltita,24.0833,-105.9333,23.3,91,53,2.04,MX,1722228981
7,weno,7.4515,151.8468,28.9,74,68,3.29,FM,1722228983
8,itaituba,-4.2761,-55.9836,25.48,53,88,0.92,BR,1722228613
9,vilyuchinsk,52.9306,158.4028,12.15,89,100,1.5,RU,1722228985
10,ola,59.5833,151.2833,15.21,65,1,4.81,RU,1722228986
11,waitangi,-43.9535,-176.5597,11.57,94,99,1.34,NZ,1722228576
12,kavaratti,10.5669,72.642,28.39,83,100,10.49,IN,1722228989
13,el soberbio,-27.2985,-54.1988,17.95,100,99,0.51,AR,1722228808
14,el quebrachal,-25.2833,-64.0667,17.25,41,87,4.78,AR,1722228991
15,chu,43.5983,73.7614,35.39,16,5,3.43,KZ,1722228992
16,grytviken,-54.2811,-36.5092,-1.13,80,59,4.55,GS,1722228640
17,west island,-12.1568,96.8225,27.99,69,40,9.26,CC,1722228595
18,mombetsu,44.3525,143.3525,24.01,83,75,2.06,JP,1722228996
19,suncho corral,-27.9336,-63.4294,14.13,37,77,7.29,AR,1722228997
20,shache,38.4167,77.2406,37.83,11,4,1.46,CN,1722228998
21,howard springs,-12.497,131.047,30.95,32,17,6.51,AU,1722228999
22,east london,-33.0153,27.9116,10.52,50,0,6.17,ZA,1722228918
23,siwa oasis,29.2041,25.5195,28.08,54,0,2.29,EG,1722228698
24,ust-tsilma,65.441,52.1498,18.72,73,100,1.98,RU,1722229003
25,amahai,-3.3333,128.9167,26.66,83,52,4.93,ID,1722229004
26,rio grande,-32.035,-52.0986,10.53,72,100,8.18,BR,1722229005
27,port alfred,-33.5906,26.891,8.99,69,54,1.79,ZA,1722228573
28,edinburgh of the seven seas,-37.0676,-12.3116,14.08,94,72,4.54,SH,1722228604
29,arraial do cabo,-22.9661,-42.0278,22.02,92,0,8.25,BR,1722228978
30,adamstown,-25.066,-130.1015,21.07,74,100,5.5,PN,1722228586
31,guerrero negro,27.9769,-114.0611,19.58,84,9,5.92,MX,1722228604
32,talnakh,69.4865,88.3972,26.54,37,37,1.87,RU,1722228694
33,kara suu,40.7046,72.8667,30.98,39,0,3.0,KG,1722229013
34,sitka,57.0531,-135.33,15.94,72,40,2.57,US,1722228716
35,kingston,17.997,-76.7936,29.53,74,20,1.54,JM,1722228757
36,wailua homesteads,22.0669,-159.378,25.44,77,100,6.69,US,1722228628
37,port-aux-francais,-49.35,70.2167,-0.15,76,100,13.99,TF,1722228579
38,kota belud,6.351,116.4305,30.49,66,64,3.11,MY,1722228946
39,uturoa,-16.7333,-151.4333,26.47,85,3,6.82,PF,1722228602
40,blackmans bay,-43.0167,147.3167,9.07,62,5,0.45,AU,1722228731
41,olhao,37.0286,-7.8411,26.27,79,20,4.12,PT,1722229023
42,nar'yan-mar,67.6713,53.087,19.18,67,99,4.98,RU,1722228619
43,puerto natales,-51.7236,-72.4875,0.08,88,95,3.32,CL,1722229025
44,port augusta,-32.5,137.7667,15.43,35,96,4.26,AU,1722229026
45,waveland,30.2869,-89.3762,30.03,85,98,2.66,US,1722229027
46,whakatane,-37.9585,176.9854,14.17,94,100,1.34,NZ,1722229029
47,albany,42.6001,-73.9662,20.96,89,95,0.86,US,1722228317
48,konarka,19.9,86.1167,30.22,94,100,2.68,IN,1722229031
49,ts'khinvali,42.2276,43.9686,17.7,76,41,0.73,GE,1722229032
50,vorgashor,67.5833,63.95,21.05,61,84,5.39,RU,1722229033
51,raub,3.7899,101.857,33.17,63,97,1.25,MY,1722229034
52,revda,56.801,59.9303,10.64,98,100,3.34,RU,1722229036
53,ebon,4.582,168.6964,28.82,68,72,2.48,MH,1722229037
54,mpanda,-6.3655,31.0409,17.74,29,0,0.33,TZ,1722229038
55,port elizabeth,-33.918,25.5701,9.62,66,0,6.69,ZA,1722228583
56,sao joao da barra,-21.6403,-41.0511,21.99,88,0,6.37,BR,1722228598
57,margaret river,-33.95,115.0667,15.7,77,99,7.91,AU,1722228678
58,darlowo,54.421,16.4107,17.1,82,1,9.26,PL,1722229043
59,aasiaat,68.7098,-52.8699,2.45,98,100,5.43,GL,1722228720
60,tamanrasset,22.785,5.5228,29.95,28,40,1.54,DZ,1722229045
61,orkney,-26.9802,26.6727,-0.73,67,0,1.91,ZA,1722229046
62,bethel,41.3712,-73.414,21.46,81,75,0.45,US,1722228573
63,nicoya,10.1483,-85.452,23.4,96,93,0.99,CR,1722229048
64,olonkinbyen,70.9221,-8.7187,4.9,99,100,8.31,SJ,1722228670
65,gudauta,43.1055,40.6207,24.38,62,0,5.19,GE,1722229051
66,minot,48.2325,-101.2963,20.12,73,0,2.06,US,1722228874
67,khorugh,37.4897,71.553,22.96,28,0,0.19,TJ,1722229053
68,petropavlovsk-kamchatsky,53.0452,158.6483,11.33,76,75,4.0,RU,1722228286
69,ellsworth,44.5434,-68.4195,17.14,93,0,0.0,US,1722228859
70,ribeira grande,38.5167,-28.7,23.76,92,9,1.79,PT,1722229057
71,xilin hot,43.9667,116.0333,27.93,35,86,1.07,CN,1722229058
72,puerto san jose,13.9256,-90.8244,24.85,94,100,3.78,GT,1722229059
73,saldanha,-33.0117,17.9442,6.03,65,91,1.83,ZA,1722229060
74,valdez,1.2492,-78.9831,24.97,92,94,2.77,EC,1722229061
75,rapid city,44.0805,-103.231,20.12,73,0,4.47,US,1722228633
76,kavieng,-2.5744,150.7967,28.9,72,85,3.75,PG,1722229064
77,hadibu,12.65,54.0333,26.46,77,72,11.02,YE,1722229065
78,yellowknife,62.456,-114.3525,18.29,68,75,5.66,CA,1722228577
79,ilulissat,69.2167,-51.1,7.01,76,100,6.17,GL,1722228677
80,port lincoln,-34.7333,135.8667,14.1,52,99,4.9,AU,1722229068
81,erenhot,43.6475,111.9767,31.51,27,98,2.6,CN,1722229070
82,invercargill,-46.4,168.35,5.57,98,100,4.47,NZ,1722228643
83,nova vicosa,-17.8919,-39.3719,21.81,82,26,2.68,BR,1722229072
84,lerwick,60.1545,-1.1494,14.0,88,100,7.04,GB,1722229073
85,yuzhno-kurilsk,44.0306,145.8556,16.31,99,100,7.02,RU,1722229074
86,shantobe,52.4581,68.1839,17.46,60,73,6.73,KZ,1722228940
87,ancud,-41.8697,-73.8203,2.45,86,50,3.2,CL,1722229077
88,hiriyur,13.9456,76.6192,26.76,69,99,11.29,IN,1722229078
89,hotan,37.0997,79.9269,39.2,8,0,3.89,CN,1722229079
90,terenos,-20.4422,-54.8603,22.84,37,0,3.09,BR,1722229080
91,naze,28.3667,129.4833,30.51,73,59,1.72,JP,1722229081
92,nova sintra,14.8667,-24.7167,25.23,78,88,6.4,CV,1722229082
93,marquette,46.5333,-87.6335,22.8,86,85,2.24,US,1722229084
94,akureyri,65.6835,-18.0878,11.96,76,75,2.06,IS,1722229085
95,kismayo,-0.3582,42.5454,25.89,77,10,6.07,SO,1722229086
96,amasra,41.7463,32.3863,24.32,42,0,1.3,TR,1722229088
97,assab,13.0092,42.7394,31.92,69,85,7.12,ER,1722229090
98,conception bay south,47.4999,-52.9981,19.47,90,36,7.59,CA,1722229091
99,hermoso campo,-27.6082,-61.3444,12.75,65,69,5.59,AR,1722229092
100,ta`u,-14.2336,-169.5144,24.59,65,65,9.57,AS,1722229093
101,puerto ayora,-0.7393,-90.3518,19.75,89,56,0.45,EC,1722228616
102,bredasdorp,-34.5322,20.0403,5.96,83,65,3.63,ZA,1722228649
103,belmonte,-15.8631,-38.8828,21.94,90,60,1.5,BR,1722229097
104,codrington,-38.2667,141.9667,13.01,64,37,4.06,AU,1722229098
105,qaqortoq,60.7167,-46.0333,4.11,85,18,1.69,GL,1722229100
106,iqaluit,63.7506,-68.5145,3.85,86,75,2.57,CA,1722228622
107,puerto baquerizo moreno,-0.9,-89.6,19.81,83,58,4.6,EC,1722228431
108,port mathurin,-19.6833,63.4167,22.14,76,48,6.11,MU,1722228688
109,gevrai,19.2667,75.75,25.02,83,100,6.88,IN,1722229105
110,birzebbuga,35.8258,14.5269,24.53,88,0,1.54,MT,1722229106
111,tingi,-11.3,35.0333,15.81,37,1,1.34,TZ,1722229107
112,rovaniemi,66.5,25.7167,15.67,94,40,1.54,FI,1722229108
113,jamestown,42.097,-79.2353,20.77,81,0,0.89,US,1722229002
114,stanley,54.868,-1.6985,11.51,95,0,1.03,GB,1722228596
115,sao jose da coroa grande,-8.8978,-35.1478,23.8,86,2,3.77,BR,1722229112
116,tucurui,-3.7661,-49.6725,22.46,61,8,0.6,BR,1722229113
117,korla,41.7597,86.1469,36.35,15,88,1.38,CN,1722229114
118,neka,36.6508,53.299,22.73,94,100,5.14,IR,1722229115
119,udachny,66.4167,112.4,16.64,56,97,8.79,RU,1722228570
120,kulhudhuffushi,6.6221,73.07,28.29,81,100,8.06,MV,1722229118
121,atafu village,-8.5421,-172.5159,27.69,76,83,8.59,TK,1722229119
122,kapa'a,22.0752,-159.319,26.18,74,100,6.69,US,1722228432
123,isafjordur,66.0755,-23.124,7.78,97,100,2.34,IS,1722229121
124,avarua,-21.2078,-159.775,22.03,68,40,4.12,CK,1722228635
125,meadow lakes,61.6247,-149.6011,15.04,81,100,1.54,US,1722229124
126,alofi,-19.0595,-169.9187,21.94,56,40,7.72,NU,1722229125
127,jamaame,0.0697,42.745,26.43,72,15,5.14,SO,1722229126
128,lumut,4.2323,100.6298,30.01,70,20,2.06,MY,1722229060
129,galesong,-5.3166,119.3661,32.01,65,0,6.08,ID,1722229128
130,nyurba,63.2842,118.3319,21.21,78,65,2.61,RU,1722229129
131,remire-montjoly,4.9167,-52.2667,24.02,94,27,1.03,GF,1722229131
132,n'zeto,-7.2312,12.8666,19.92,89,100,0.94,AO,1722229132
133,tromso,69.6496,18.957,12.01,87,75,0.0,NO,1722229133
134,antsiranana,-12.2787,49.2917,22.42,64,20,3.09,MG,1722229134
135,papatowai,-46.5619,169.4708,5.53,98,100,8.9,NZ,1722228637
136,college,64.8569,-147.8028,17.26,74,90,1.3,US,1722228572
137,rosarito,32.3333,-117.0333,20.82,76,0,3.89,MX,1722229138
138,laguna,38.421,-121.4238,23.75,60,0,4.12,US,1722229139
139,guarapari,-20.6667,-40.4975,22.72,85,0,4.9,BR,1722229140
140,urangan,-25.3,152.9,20.29,33,0,2.1,AU,1722229141
141,maba,24.6841,113.5984,29.99,79,89,1.09,CN,1722229142
142,mwene-ditu,-7.0,23.45,17.79,24,25,1.74,CD,1722229144
143,dudinka,69.4058,86.1778,26.33,41,67,4.68,RU,1722229145
144,lihue,21.9789,-159.3672,25.77,75,100,6.69,US,1722228684
145,elko,41.0002,-115.5012,21.01,19,0,2.16,US,1722229147
146,shiqian,27.5225,108.2281,24.18,97,100,1.35,CN,1722229148
147,sinabang,2.4803,96.3801,30.22,66,100,2.56,ID,1722229149
148,greci,45.1833,28.2333,24.16,56,0,8.04,RO,1722229151
149,pajok,3.8651,32.4821,20.84,90,100,1.06,SS,1722229152
150,ha'il,27.5219,41.6907,31.01,23,0,3.09,SA,1722229153
151,altay,47.8667,88.1167,31.47,19,95,2.9,CN,1722229154
152,thompson,55.7435,-97.8558,17.09,82,40,1.03,CA,1722229155
153,thunder bay,48.4001,-89.3168,21.99,88,40,2.57,CA,1722229157
154,rongelap,11.1635,166.8941,28.43,73,54,5.07,MH,1722228738
155,vila velha,-20.3297,-40.2925,22.97,84,0,4.12,BR,1722228637
156,neiafu,-18.65,-173.9833,23.38,60,20,7.2,TO,1722229160
157,kodiak,57.79,-152.4072,11.73,94,100,2.06,US,1722228690
158,petauke,-14.2426,31.3253,15.48,20,0,1.2,ZM,1722229162
159,utrik,11.2278,169.8474,25.21,94,88,6.8,MH,1722229164
160,molde,62.7375,7.1591,13.28,88,100,3.09,NO,1722229165
161,hamilton,39.1834,-84.5333,23.92,93,75,3.6,US,1722229083
162,arauco,-37.2463,-73.3175,4.96,49,8,1.29,CL,1722229167
163,tiksi,71.6872,128.8694,3.58,89,100,5.2,RU,1722228624
164,korsakov,46.6328,142.7813,23.91,87,100,2.24,RU,1722229171
165,bubaque,11.2833,-15.8333,26.47,82,100,2.8,GW,1722229172
166,hawaiian paradise park,19.5933,-154.9731,25.73,78,100,2.57,US,1722228665
167,arraias,-12.9288,-46.9437,20.16,45,3,1.86,BR,1722229174
168,fale old settlement,-9.3852,-171.2468,27.13,77,97,8.81,TK,1722228658
169,ashta,23.0167,76.7167,27.44,86,95,0.75,IN,1722229177
170,malango,-2.9627,119.9001,27.62,65,55,2.27,ID,1722229178
171,khovd,48.0056,91.6419,29.76,24,66,3.05,MN,1722229179
172,alaca,40.1683,34.8425,17.98,51,0,3.0,TR,1722229180
173,granada,37.25,-3.25,23.5,41,100,1.56,ES,1722229181
174,georgetown,5.4112,100.3354,30.96,58,20,3.09,MY,1722229182
175,aykhal,66.0,111.5,16.19,64,96,9.52,RU,1722229184
176,whitehorse,60.7161,-135.0538,17.79,47,20,5.66,CA,1722229185
177,karaton,-6.3424,106.1045,33.84,41,55,0.9,ID,1722229186
178,holly springs,35.6513,-78.8336,22.86,82,40,2.74,US,1722229157
179,kidal,18.4411,1.4078,29.2,49,95,3.71,ML,1722229188
180,badger,64.8,-147.5333,17.21,74,91,1.2,US,1722228654
181,juan de ayolas,-27.4,-56.9,15.58,95,92,5.33,PY,1722229191
182,midvagur,62.0511,-7.1939,11.46,100,100,9.77,FO,1722229192
183,ketchikan,55.3422,-131.6461,15.99,97,99,1.41,US,1722229193
184,bartica,6.4,-58.6167,24.18,99,89,0.7,GY,1722229195
185,acarau,-2.8856,-40.12,23.13,91,5,4.23,BR,1722229197
186,cabo san lucas,22.8909,-109.9124,29.54,73,61,5.91,MX,1722229198
187,enewetak,11.3474,162.3373,27.94,75,82,1.51,MH,1722228639
188,sattahip,12.6664,100.9007,29.05,94,75,5.14,TH,1722228984
189,okulovka,58.4008,33.2908,16.54,87,100,2.86,RU,1722229201
190,dazhou,31.2159,107.5009,29.12,70,98,2.38,CN,1722229202
191,arboletes,8.8505,-76.4269,26.95,90,85,2.7,CO,1722229204
192,port saint john's,-31.6229,29.5448,14.23,36,0,7.25,ZA,1722229205
193,punta arenas,-53.15,-70.9167,1.06,86,75,4.63,CL,1722228732
194,palmer,42.1584,-72.3287,20.51,78,100,2.08,US,1722229207
195,verkhniye kigi,55.4083,58.6044,11.96,93,100,5.33,RU,1722229210
196,san antonio de pale,-1.4014,5.6325,22.61,75,97,5.47,GQ,1722229211
197,miramar beach,30.3744,-86.3586,28.04,87,3,3.07,US,1722229212
198,fortuna,40.5982,-124.1573,14.96,91,100,2.57,US,1722229213
199,yabelo,4.8833,38.0833,16.46,72,100,0.67,ET,1722229214
200,la ronge,55.1001,-105.2842,18.14,77,75,1.54,CA,1722229216
201,fenoarivo atsinanana,-17.3667,49.4167,19.82,78,9,1.85,MG,1722229217
202,aur,8.1499,171.1687,25.16,92,100,6.67,MH,1722229219
203,merizo village,13.2658,144.6691,31.66,82,100,3.86,GU,1722229220
204,kulachi,31.9286,70.4592,42.11,29,0,3.3,PK,1722229222
205,gizo,-8.103,156.8419,26.75,81,100,2.52,SB,1722229223
206,zhaotong,27.3167,103.7167,23.41,74,100,3.21,CN,1722229224
207,anadyr,64.75,177.4833,15.28,44,20,6.0,RU,1722229225
208,kyzylorda,44.8528,65.5092,28.01,24,0,5.0,KZ,1722229226
209,el colomo,19.05,-104.25,25.97,84,1,0.85,MX,1722229227
210,vorkuta,67.5,64.0,20.72,65,77,5.02,RU,1722229229
211,taltal,-25.4,-70.4833,14.24,75,22,0.31,CL,1722229230
212,haiku-pauwela,20.9219,-156.3051,25.68,71,20,10.8,US,1722229231
213,chamical,-30.36,-66.314,12.04,42,100,1.0,AR,1722229201
214,kuta,-8.7233,115.1723,28.97,79,40,6.17,ID,1722229046
215,carboneras,37.0015,-1.9213,27.4,63,34,4.44,ES,1722229237
216,harper,4.375,-7.7169,24.25,86,100,6.26,LR,1722229238
217,hammerfest,70.6634,23.6821,11.25,100,75,2.06,NO,1722229239
218,tralee,52.2704,-9.7026,12.57,90,98,1.81,IE,1722229240
219,acapulco de juarez,16.8634,-99.8901,25.05,83,87,1.27,MX,1722229242
220,xining,36.6167,101.7667,24.33,50,27,1.22,CN,1722229243
221,bardai,11.65,7.2333,20.12,96,100,4.45,NG,1722229244
222,marsh harbour,26.5412,-77.0636,28.17,75,70,1.8,BS,1722229224
223,touros,-5.1989,-35.4608,23.3,91,33,5.04,BR,1722229246
224,newman,37.3138,-121.0208,26.13,55,0,3.31,US,1722228689
225,portland,45.5234,-122.6762,20.99,71,44,0.89,US,1722228900
226,papao,-17.75,-149.55,26.82,81,3,9.76,PF,1722228719
227,paraiso,9.8383,-83.8656,20.48,98,100,2.41,CR,1722229251
228,turpan,42.9333,89.1667,43.89,11,40,2.19,CN,1722229253
229,al hazm,16.1641,44.7769,31.28,35,100,7.87,YE,1722229255
230,guapi,2.5708,-77.8854,25.32,93,71,0.7,CO,1722229256
231,margate,51.3813,1.3862,16.5,88,16,3.62,GB,1722229257
232,murzuq,25.9155,13.9184,26.44,24,11,3.93,LY,1722229258
233,selfoss,63.9331,-20.9971,11.3,99,100,5.88,IS,1722229259
234,bambari,5.768,20.6757,21.75,95,99,1.18,CF,1722229261
235,mount pleasant,32.7941,-79.8626,22.78,88,0,0.0,US,1722228986
236,anonang,11.0,124.0333,31.53,60,59,0.79,PH,1722229263
237,gadzhiyevo,69.2551,33.3362,10.52,82,98,5.28,RU,1722228710
238,hermanus,-34.4187,19.2345,8.78,75,66,5.54,ZA,1722229265
239,nemuro,43.3236,145.575,15.79,99,100,7.47,JP,1722229266
240,khash,28.2211,61.2158,33.36,28,69,1.16,IR,1722229268
241,nikolayevsk-on-amure,53.1406,140.73,14.02,79,100,3.43,RU,1722229269
242,ushuaia,-54.8,-68.3,0.81,60,75,2.06,AR,1722229159
243,mar del plata,-38.0023,-57.5575,4.41,72,0,4.47,AR,1722229207
244,daru,-9.0763,143.2092,26.13,75,50,6.33,PG,1722229272
245,khandyga,62.6667,135.6,22.88,40,88,3.51,RU,1722229273
246,robertsport,6.7533,-11.3686,24.97,86,100,6.79,LR,1722229275
247,coquimbo,-29.9533,-71.3436,9.85,100,20,2.57,CL,1722228702
248,kruisfontein,-34.0033,24.7314,8.27,60,87,5.84,ZA,1722229277
249,praia,14.9215,-23.5087,24.3,78,40,4.63,CV,1722229278
250,iskateley,67.6803,53.1512,19.26,66,99,5.01,RU,1722229279
251,tual,-5.6667,132.75,25.59,86,56,7.68,ID,1722229281
252,tazovsky,67.4667,78.7,20.45,53,3,5.57,RU,1722228722
253,woods creek,47.8787,-121.8985,17.73,82,45,0.27,US,1722229284
254,magong,23.5654,119.5863,28.57,76,100,5.11,TW,1722229285
255,igarka,67.4667,86.5833,25.72,49,24,6.14,RU,1722229288
256,mahina,-17.5065,-149.489,26.87,83,20,5.14,PF,1722229289
257,cidreira,-30.1811,-50.2056,14.68,97,100,8.73,BR,1722229290
258,pont rouge,48.8833,-72.0825,23.16,82,0,2.46,CA,1722229292
259,lompoc,34.6391,-120.4579,15.29,82,100,3.6,US,1722229293
260,novo aripuana,-5.1206,-60.3797,25.72,61,37,1.33,BR,1722229294
261,keflavik,64.0049,-22.5624,11.95,100,100,4.63,IS,1722229271
262,chui,-33.6971,-53.4616,7.1,72,38,4.18,UY,1722229296
263,novaya ladoga,60.1025,32.3019,17.93,80,100,3.7,RU,1722229298
264,fort bragg,35.139,-79.006,23.32,83,0,1.54,US,1722228699
265,ranau,5.9538,116.6641,27.47,75,48,0.61,MY,1722229301
266,peace river,56.2501,-117.286,19.17,82,75,2.06,CA,1722229302
267,eurajoki,61.2,21.7333,17.01,83,99,4.26,FI,1722229303
268,medicine hat,50.0501,-110.6683,19.24,52,0,2.57,CA,1722229094
269,port blair,11.6667,92.75,31.02,74,75,8.54,IN,1722229306
270,callao,-12.0667,-77.15,16.51,82,100,2.06,PE,1722229308
271,guercif,34.2257,-3.3536,23.68,77,66,0.28,MA,1722229309
272,carnarvon,-24.8667,113.6333,21.23,49,0,2.71,AU,1722229310
273,putten,52.25,5.6,15.51,94,55,0.45,NL,1722229312
274,gaspe,48.8334,-64.4819,19.95,94,0,0.0,CA,1722229313
275,santa terezinha,-29.9002,-50.0904,15.03,97,100,5.15,BR,1722229314
276,ginir,7.1333,40.7,18.02,72,91,3.89,ET,1722229315
277,serenje,-13.2325,30.2352,12.3,26,0,0.67,ZM,1722229316
278,st. john's,47.5649,-52.7093,18.77,90,20,12.35,CA,1722229217
279,tabas,33.5959,56.9244,37.88,13,0,2.22,IR,1722229319
280,kasongo,-4.45,26.6667,20.14,26,0,1.18,CD,1722229320
281,qamdo,31.1667,97.2333,14.6,42,84,2.7,CN,1722229321
282,geltendorf,48.1333,11.0333,13.83,97,0,0.51,DE,1722229322
283,aurora,39.7294,-104.8319,23.49,37,0,2.57,US,1722229307
284,rouissat,31.9243,5.3502,31.04,37,0,5.14,DZ,1722229325
285,arkhangel'sk,64.5401,40.5433,13.06,100,75,3.0,RU,1722229326
286,msowero,-6.5333,37.2,20.31,72,3,0.51,TZ,1722229327
287,broome,42.2506,-75.833,19.44,81,69,0.93,US,1722229328
288,mulayjah,27.271,48.4242,38.22,12,100,9.54,SA,1722229329
289,tangalle,6.024,80.7911,32.09,75,94,6.92,LK,1722229331
290,santa marta,11.2408,-74.199,29.03,70,20,3.09,CO,1722229332
291,ambodifotatra,-16.9833,49.85,20.51,80,0,3.28,MG,1722229333
292,micheweni,-4.9667,39.8333,24.98,80,51,3.85,TZ,1722229334
293,maues,-3.3836,-57.7186,24.23,63,56,1.16,BR,1722229335
294,sofifi,0.7349,127.576,29.8,66,14,2.39,ID,1722229336
295,pacific grove,36.6177,-121.9166,14.56,88,100,3.09,US,1722229338
296,happy valley-goose bay,53.3168,-60.3315,19.17,68,20,4.12,CA,1722229339
297,new norfolk,-42.7826,147.0587,9.72,43,3,0.31,AU,1722229340
298,kapuskasing,49.4169,-82.4331,22.05,64,75,4.12,CA,1722229341
299,klyuchi,52.2667,79.1667,24.38,43,57,4.39,RU,1722229342
300,turaif,31.6725,38.6637,25.14,36,0,4.12,SA,1722229343
301,biloela,-24.4167,150.5,20.25,17,0,8.1,AU,1722229345
302,kitimat,54.0524,-128.6534,15.21,61,100,1.79,CA,1722229346
303,mangai,-4.05,19.5333,18.66,48,48,1.15,CD,1722229347
304,rikaze,29.25,88.8833,21.44,21,1,0.29,CN,1722229348
305,beni,0.5,29.4667,17.18,96,45,0.51,CD,1722229349
306,kenora,49.8167,-94.4337,21.54,68,40,3.09,CA,1722229350
307,ilebo,-4.3167,20.5833,18.52,41,58,0.64,CD,1722229352
308,sogamoso,5.7143,-72.9339,10.43,95,55,1.42,CO,1722229353
309,semera,11.501,41.201,29.37,52,50,2.33,ET,1722229354
310,targu carbunesti,44.95,23.5167,24.08,44,0,0.51,RO,1722229355
311,mount gambier,-37.8333,140.7667,12.52,55,63,2.27,AU,1722229356
312,jinghong,21.991,100.7341,23.47,99,100,0.86,CN,1722229358
313,lebu,-37.6167,-73.65,4.56,68,17,5.51,CL,1722229359
314,egilsstadir,65.2653,-14.3948,13.95,67,75,6.69,IS,1722229360
315,queenstown,-31.8976,26.8753,-0.2,69,3,2.96,ZA,1722229361
316,altai,46.3722,96.2583,23.98,24,35,1.16,MN,1722229362
317,shalqar,47.8333,59.6,27.07,26,43,6.01,KZ,1722229363
318,cockburn town,21.4612,-71.1419,27.63,82,100,7.71,TC,1722229365
319,meulaboh,4.1363,96.1285,28.74,66,100,1.22,ID,1722229366
320,sur,22.5667,59.5289,32.85,60,95,2.81,OM,1722229367
321,dunedin,-45.8742,170.5036,8.22,99,100,5.73,NZ,1722229368
322,lundazi,-12.2929,33.1782,14.57,32,0,2.21,ZM,1722229369
323,saipan,15.1355,145.701,29.32,73,39,3.32,MP,1722229370
324,kinablangan,7.6947,126.5503,28.2,80,58,3.44,PH,1722229372
325,vadso,70.0744,29.7487,15.49,94,40,6.69,NO,1722229373
326,mana,5.6592,-53.7767,24.55,87,13,4.11,GF,1722229374
327,saint-joseph,-21.3667,55.6167,22.21,67,5,1.93,RE,1722229375
328,upington,-28.4478,21.2561,0.21,80,0,0.51,ZA,1722229376
329,nishinoomote,30.7333,131.0,31.31,79,40,5.66,JP,1722229378
330,porto seguro,-16.4497,-39.0647,21.29,88,40,1.03,BR,1722229379
331,chibougamau,49.9168,-74.3659,19.79,64,0,3.6,CA,1722229296
332,alice springs,-23.7,133.8833,16.75,25,0,7.2,AU,1722229381
333,lamu,-2.2717,40.902,25.35,81,60,6.42,KE,1722229382
334,bereznik,62.8551,42.7072,13.5,72,100,2.5,RU,1722229383
335,kattivakkam,13.2167,80.3167,33.41,63,98,8.86,IN,1722229385
336,bryne,58.7354,5.6477,12.54,95,0,1.03,NO,1722229386
337,zaysan,47.4667,84.8667,32.42,30,48,4.36,KZ,1722229387
338,bandon,51.7469,-8.7425,12.77,94,54,1.42,IE,1722229388
339,kununurra,-15.7667,128.7333,28.99,28,88,4.63,AU,1722229389
340,ottawa,45.4112,-75.6981,19.86,83,3,0.69,CA,1722228692
341,serro,-18.6047,-43.3794,13.39,82,29,1.23,BR,1722229272
342,ponta delgada,37.7333,-25.6667,23.4,94,75,4.12,PT,1722229393
343,baiti,13.745,-14.7482,25.16,84,100,2.75,SN,1722229394
344,privolzhskiy,51.4,46.0333,25.73,31,95,4.68,RU,1722229203
345,lai,9.3952,16.2989,21.54,95,98,1.8,TD,1722229396
346,hithadhoo,-0.6,73.0833,28.96,71,100,4.57,MV,1722229398
347,minas de marcona,-15.2119,-75.1103,9.98,90,32,3.62,PE,1722229399
348,kirkland lake,48.1446,-80.0377,20.16,73,99,1.03,CA,1722229400
349,upper hutt,-41.1383,175.0502,14.8,71,100,3.78,NZ,1722229401
350,colonia,50.9333,6.95,14.98,89,13,1.33,DE,1722229402
351,taoudenni,22.6783,-3.9836,36.25,12,34,3.47,ML,1722229403
352,kloulklubed,7.0419,134.2556,28.56,70,96,2.13,PW,1722229405
353,yelabuga,55.7613,52.0649,16.75,63,100,3.03,RU,1722229406
354,rehoboth,-23.3167,17.0833,2.8,55,0,1.21,NA,1722229407
355,ust-nera,64.5667,143.2,22.77,35,100,3.47,RU,1722229408
356,akobo,7.4344,3.9497,20.98,97,100,1.46,NG,1722229409
357,malvan,16.0667,73.4667,28.07,85,74,10.88,IN,1722229410
358,machico,32.7,-16.7667,23.35,80,40,2.06,PT,1722229412
359,bamboo flat,11.7,92.7167,31.05,74,75,8.3,IN,1722229413
360,vila franca do campo,37.7167,-25.4333,23.23,93,64,1.57,PT,1722229414
361,xiva,41.3783,60.3639,25.99,17,98,7.03,UZ,1722229415
362,kuqa,41.7278,82.9364,36.41,16,100,0.95,CN,1722229215
363,mithi,24.7318,69.7981,32.25,62,97,4.79,PK,1722229417
364,tubarjal,30.4999,38.216,28.22,35,0,6.88,SA,1722229419
365,sines,37.9562,-8.8698,19.27,92,94,1.53,PT,1722229420
366,arochukwu,5.3898,7.914,22.48,97,100,0.99,NG,1722229421
367,mejit,10.2753,170.8646,24.89,93,100,3.52,MH,1722229422
368,terrace,54.5163,-128.6035,14.95,100,100,2.06,CA,1722229270
369,dinguiraye,11.3,-10.7167,20.84,97,90,1.69,GN,1722229425
370,bich'vinta,43.1592,40.3378,22.1,61,0,5.82,GE,1722229426
371,yakeshi,49.2833,120.7333,29.99,35,16,3.68,CN,1722229427
372,prado,-17.3411,-39.2208,22.8,79,0,2.08,BR,1722229428
373,brisas de zicatela,15.8369,-97.0419,26.85,86,100,1.87,MX,1722229429
374,morehead city,34.7229,-76.726,23.9,81,0,0.0,US,1722229178
375,yamada,39.4667,141.95,27.79,71,100,5.71,JP,1722229432
376,monticello,45.3055,-93.7941,21.23,94,75,2.06,US,1722229433
377,la sarre,48.8002,-79.1996,17.56,75,54,3.39,CA,1722229418
378,sidi merouane,36.5206,6.2611,22.71,33,0,0.21,DZ,1722229435
379,saint-philippe,-21.3585,55.7679,22.77,70,4,2.46,RE,1722229436
380,guatrache,-37.6678,-63.5302,1.9,35,0,2.28,AR,1722229439
381,penzance,50.1186,-5.5371,12.38,82,0,3.1,GB,1722229440
382,jijiga,9.35,42.8,19.68,74,79,6.7,ET,1722229441
383,geraldton,-28.7667,114.6,18.23,88,75,3.09,AU,1722229442
384,crane,31.3974,-102.3501,27.35,56,0,9.92,US,1722229444
385,basco,20.4487,121.9702,29.16,72,51,3.48,PH,1722229445
386,gazli,40.1333,63.45,32.41,16,4,11.16,UZ,1722229446
387,vanino,49.0869,140.2543,16.09,95,100,2.65,RU,1722229447
388,shixing,24.9482,114.0657,29.32,76,100,1.56,CN,1722229448
389,alaghsas,17.0187,8.0168,28.28,60,73,3.54,NE,1722229449
390,chonchi,-42.6128,-73.8092,1.73,94,95,0.72,CL,1722229331
391,as sulayyil,20.4607,45.5779,33.14,14,75,8.66,SA,1722229333
392,belomorsk,64.5232,34.7668,13.38,70,0,3.74,RU,1722229453
393,terenozek,45.05,64.9833,27.31,22,8,5.7,KZ,1722229454
394,shendi,16.6915,33.4341,28.67,60,23,7.25,SD,1722229455
395,la'ie,21.6477,-157.9253,26.98,75,41,0.89,US,1722229456
396,balqash,46.8481,74.995,32.33,20,0,3.0,KZ,1722229458
397,trinidad,-14.8333,-64.9,22.25,62,0,1.76,BO,1722229459
398,pariaman,-0.619,100.12,32.03,72,99,3.25,ID,1722229460
399,karratha,-20.7377,116.8463,27.06,18,2,5.15,AU,1722229461
400,conceicao do araguaia,-8.2578,-49.2647,21.41,46,4,0.89,BR,1722229227
401,jinchang,38.4953,102.1739,25.22,28,100,7.93,CN,1722229463
402,kill devil hills,36.0307,-75.676,22.77,79,0,0.0,US,1722229465
403,hami,42.8,93.45,37.73,13,3,0.75,CN,1722229466
404,axim,4.8699,-2.2405,23.93,86,100,4.12,GH,1722229467
405,coihueco,-36.6167,-71.8333,1.41,80,0,2.57,CL,1722229468
406,horsham,51.064,-0.3272,15.97,74,0,1.54,GB,1722229469
407,al ghayzah,16.2079,52.176,26.56,84,98,4.37,YE,1722229470
408,sisimiut,66.9395,-53.6735,3.56,95,100,15.52,GL,1722229472
409,tobelo,1.7284,128.0095,28.68,73,31,2.97,ID,1722229473
410,constantia,44.1833,28.65,24.38,45,0,4.53,RO,1722229367
411,arteixo,43.3048,-8.5075,19.72,96,20,0.0,ES,1722229475
412,nuuk,64.1835,-51.7216,3.34,93,100,16.46,GL,1722229476
413,williams lake,52.1415,-122.1445,19.76,65,75,3.09,CA,1722229282
414,gazipasa,36.2694,32.3179,30.05,35,0,1.03,TR,1722229481
415,ascencion de guarayos,-15.8963,-63.1881,20.99,59,16,0.75,BO,1722229482
416,plettenberg bay,-34.0527,23.3716,8.51,69,69,4.7,ZA,1722229484
417,onega,63.9061,38.1404,14.04,66,48,3.0,RU,1722229485
418,saacow,1.6279,42.4407,24.96,77,30,6.28,SO,1722229486
419,three points,32.0767,-111.3137,26.84,75,100,4.58,US,1722229488
420,sokoni,-6.4333,39.55,22.92,79,31,4.21,TZ,1722229489
421,chapaev,50.2,51.1667,27.47,33,36,5.17,KZ,1722229491
422,raduzhny,62.0961,77.475,24.45,49,80,2.9,RU,1722229492
423,svobodnyy,51.4,128.1333,31.89,32,0,4.02,RU,1722229493
424,solnechnyy,50.7214,136.6319,17.0,80,97,4.41,RU,1722229494
425,alta,69.9689,23.2717,13.59,88,75,6.17,NO,1722229495
426,neijiang,29.5835,105.0622,26.26,84,100,1.88,CN,1722229496
427,bu'aale,1.0833,42.5833,25.44,75,32,4.47,SO,1722229498
428,pisco,-13.7,-76.2167,16.03,88,100,2.57,PE,1722229499
429,pustoshka,56.3355,29.369,11.74,93,100,5.82,RU,1722229500
430,hasaki,35.7333,140.8333,36.27,72,100,3.47,JP,1722229501
431,columbus,39.9612,-82.9988,25.08,84,40,3.09,US,1722229492
432,navlya,52.8281,34.4989,15.22,85,80,5.16,RU,1722229504
433,lhasa,29.65,91.1,20.98,27,1,3.06,CN,1722229505
434,kone,-21.0595,164.8658,22.4,61,100,1.13,NC,1722229506
435,howrah,22.5892,88.3103,32.0,79,75,3.6,IN,1722229507
436,salinas,36.6777,-121.6555,14.44,90,100,5.14,US,1722229508
437,inhambane,-23.865,35.3833,17.99,93,20,0.0,MZ,1722229509
438,sarina,-21.4333,149.2167,22.37,28,0,6.26,AU,1722229511
439,ciudad lazaro cardenas,17.9583,-102.2,26.15,85,100,2.54,MX,1722229512
440,ulladulla,-35.35,150.4667,13.76,53,73,9.19,AU,1722229513
441,bundibugyo,0.7414,30.0417,20.2,84,29,1.01,UG,1722229514
442,shimoda,34.6667,138.95,32.2,65,99,2.16,JP,1722229515
443,auki,-8.7676,160.7034,29.12,64,77,1.08,SB,1722229516
444,broken hill,-31.95,141.4333,12.65,34,2,2.74,AU,1722229351
445,yol,32.1667,76.2,29.39,77,81,1.66,IN,1722229520
446,suihua,46.6406,126.9969,27.08,62,29,4.15,CN,1722229521
447,jaciara,-15.9653,-54.9683,20.74,42,0,1.43,BR,1722229357
448,monte cristo,-31.3431,-63.9444,11.26,36,100,2.88,AR,1722229524
449,jaen,38.0,-3.5,26.63,41,93,0.64,ES,1722229525
450,las khorey,11.1595,48.1967,33.23,49,95,5.21,SO,1722229526
451,kostomuksha,64.571,30.5767,14.97,59,79,3.13,RU,1722229527
452,razole,16.4833,81.8333,31.49,63,89,4.12,IN,1722229528
453,pervomayskoye,43.919,46.7102,26.94,34,69,2.59,RU,1722229529
454,plastun,44.7561,136.2939,23.37,79,89,3.2,RU,1722229531
455,jilib,0.4883,42.7854,26.26,72,12,4.09,SO,1722229532
456,veraval,20.9,70.3667,26.77,91,100,6.74,IN,1722229533
457,walvis bay,-22.9575,14.5053,9.49,100,0,3.6,NA,1722229534
458,labrador city,52.9463,-66.9114,19.54,89,0,5.36,CA,1722229535
459,nuriootpa,-34.4833,139.0,14.24,47,98,2.5,AU,1722229536
460,itaiba,-8.9475,-37.4228,16.73,99,34,2.15,BR,1722229410
461,sechura,-5.5569,-80.8222,17.63,82,17,4.48,PE,1722229539
462,prince rupert,54.3161,-130.3201,13.83,100,100,2.06,CA,1722229540
463,chabua,27.4825,95.1736,27.97,89,100,0.0,IN,1722229541
464,painesville,41.7245,-81.2457,23.39,74,0,2.06,US,1722229542
465,cartagena,10.3997,-75.5144,27.79,89,0,2.06,CO,1722229543
466,uzgen,40.7699,73.3007,29.16,15,1,3.18,KG,1722229545
467,pedro ii,-4.4247,-41.4586,19.05,69,18,1.76,BR,1722229421
468,cuyo,10.8525,121.0086,28.66,72,49,2.92,PH,1722229547
469,ca mau,9.1769,105.15,33.12,55,100,3.84,VN,1722229548
470,goksun,38.021,36.4973,18.27,47,0,4.9,TR,1722229549
471,gebeit,21.0667,36.3167,28.05,49,96,6.89,SD,1722229551
472,afaahiti,-17.75,-149.2833,25.93,81,1,8.85,PF,1722229552
473,bayganin,48.6947,55.8742,27.34,25,12,7.19,KZ,1722229553
474,chifeng,42.2683,118.9636,32.37,37,29,0.62,CN,1722229554
475,xiongzhou,25.1167,114.3,29.06,84,97,0.49,CN,1722229555
476,gornyy,55.1153,83.9059,23.25,64,96,2.24,RU,1722229556
477,chipinge,-20.1883,32.6236,14.64,17,0,1.0,ZW,1722229558
478,al qadarif,14.0349,35.3834,24.49,78,75,5.05,SD,1722229334
479,leticia,-4.2153,-69.9406,24.03,94,20,1.03,CO,1722229271
480,ilek,51.5271,53.3831,21.01,49,73,3.05,RU,1722229561
481,holualoa,19.6228,-155.9522,24.93,74,20,2.57,US,1722229562
482,andergrove,-21.0833,149.1833,22.58,39,0,10.39,AU,1722229563
483,rabaul,-4.1967,152.1721,28.22,75,43,2.08,PG,1722229565
484,richards bay,-28.783,32.0377,18.19,49,96,4.04,ZA,1722229566
485,port isabel,26.0734,-97.2086,28.9,88,1,2.68,US,1722229500
486,rabo de peixe,37.8,-25.5833,22.73,94,75,4.12,PT,1722229568
487,arteche,12.2645,125.4048,27.72,87,45,1.81,PH,1722229569
488,sao joaquim,-28.2939,-49.9317,11.46,97,100,3.43,BR,1722229570
489,porbandar,21.6422,69.6093,27.99,89,100,4.63,IN,1722229572
490,pangai,-19.8,-174.35,22.06,60,20,5.66,TO,1722229573
491,tazacorte,28.629,-17.9293,22.3,92,100,5.66,ES,1722229574
492,luderitz,-26.6481,15.1594,10.2,67,0,7.03,NA,1722229576
493,hatillo,18.4863,-66.8254,26.58,86,100,0.89,PR,1722229577
494,grand falls-windsor,48.9332,-55.6649,20.28,77,1,5.11,CA,1722229407
495,kuraymah,18.55,31.85,32.03,45,100,4.62,SD,1722229581
496,figuig (centre),32.1089,-1.2286,27.79,19,0,3.4,MA,1722229582
497,da nang,16.0678,108.2208,32.99,55,40,3.6,VN,1722229584
498,mitu,1.1983,-70.1733,22.11,99,71,0.96,CO,1722229380
499,anjiang,27.3194,110.1031,25.46,96,100,0.47,CN,1722229586
500,debre sina,9.85,39.7667,14.29,78,84,1.44,ET,1722229587
501,cabedelo,-6.9811,-34.8339,23.37,88,17,5.45,BR,1722229315
502,dedza,-14.3779,34.3332,13.62,26,0,0.44,MW,1722229590
503,moissala,8.3404,17.7663,20.96,97,88,1.36,TD,1722229591
504,an nuhud,12.7,28.4333,25.16,72,76,5.78,SD,1722229592
505,argo,37.6333,22.7333,28.77,36,0,1.75,GR,1722229594
506,boguchany,58.3814,97.4531,28.32,43,5,2.54,RU,1722229597
507,ishim,56.1128,69.4902,17.15,71,74,5.7,RU,1722229598
508,kolonia town,6.964,158.206,32.0,70,100,1.54,FM,1722229599
509,bantay,17.5847,120.3892,29.98,81,100,4.15,PH,1722229600
510,miri,4.4148,114.0089,30.91,64,29,2.2,MY,1722229601
511,kuybyshev,55.4475,78.3218,20.58,62,0,4.12,RU,1722229603
512,wloszczowa,50.8526,19.9659,15.78,69,2,5.82,PL,1722229604
513,masuguru,-11.3667,38.4167,20.34,74,0,1.07,TZ,1722229605
514,trujillo,-8.116,-79.03,16.98,88,100,2.06,PE,1722229014
515,arrifes,37.7667,-25.7,22.14,94,75,4.12,PT,1722229607
516,tavda,58.0425,65.2726,16.19,71,100,1.08,RU,1722229608
517,laiyang,36.9758,120.7136,32.75,70,100,3.98,CN,1722229610
518,hornsby bend,30.2474,-97.5833,27.4,90,20,2.57,US,1722229611
519,north shore,-36.8,174.75,14.7,80,100,4.92,NZ,1722229612
520,laojunmiao,39.8333,97.7333,27.61,22,0,7.27,CN,1722229613
521,nuku'alofa,-21.1333,-175.2,21.19,64,20,6.17,TO,1722229614
522,balsas,-7.5325,-46.0356,21.25,43,6,0.79,BR,1722229616
523,chinon,47.1667,0.3333,18.21,85,15,4.08,FR,1722229617
524,kaoma,-14.7833,24.8,10.23,23,0,1.17,ZM,1722229333
525,sinah,36.809,43.0389,30.85,27,0,1.73,IQ,1722229619
526,kendari,-3.945,122.4989,29.88,64,22,3.1,ID,1722229620
527,takeo,10.9167,104.8333,31.48,60,99,5.76,KH,1722229621
528,zhigalovo,54.8097,105.1578,31.2,41,2,0.86,RU,1722229623
529,lorengau,-2.0226,147.2712,29.28,70,52,3.55,PG,1722229624
530,bikenibeu village,1.3673,173.1241,29.98,66,20,2.57,KI,1722229625
531,maumere,-8.6199,122.2111,28.21,73,68,0.73,ID,1722229626
532,fort st. john,56.2499,-120.8529,16.72,64,90,3.03,CA,1722229627
533,hengchun,22.0042,120.7439,30.34,70,79,2.75,TW,1722229628
534,verkhnevilyuysk,63.4453,120.3167,22.6,70,86,1.45,RU,1722229630
535,ouarzazat,30.9189,-6.8934,27.48,15,72,2.38,MA,1722229631
536,fort mcmurray,56.7268,-111.381,22.73,60,0,3.6,CA,1722229551
537,sola,-13.8833,167.55,25.6,69,85,7.55,VU,1722229633
538,justo daract,-33.8594,-65.1828,4.21,39,15,3.25,AR,1722229634
539,caranan,13.5167,123.0156,28.29,72,45,3.44,PH,1722229636
540,sona,45.4388,10.8255,23.6,93,40,1.54,IT,1722229637
541,kristiansund,63.1115,7.732,14.03,93,75,2.06,NO,1722229638
542,rouyn-noranda,48.2398,-79.0288,19.05,68,0,2.57,CA,1722229471
543,huntington,38.4193,-82.4452,23.88,89,75,1.54,US,1722229503
544,kuching,1.55,110.3333,35.05,55,20,3.13,MY,1722229642
545,galle,6.0367,80.217,29.4,83,82,1.34,LK,1722229644
546,garoowe,8.4054,48.4845,27.03,49,80,11.98,SO,1722229645
547,yanam,16.7333,82.2167,31.54,65,74,4.13,IN,1722229646
548,amga,60.8953,131.9608,22.78,52,100,3.52,RU,1722229647
549,labytnangi,66.6572,66.4183,18.12,78,100,8.67,RU,1722229648
550,homer,59.6425,-151.5483,12.94,83,100,0.0,US,1722229650
551,changyon,38.2508,125.0961,28.78,82,100,4.56,KP,1722229651
552,sandnessjoen,66.0217,12.6316,15.06,90,75,1.54,NO,1722229393
553,baruun-urt,46.6806,113.2792,28.89,41,26,5.27,MN,1722229653
554,smithers,54.7804,-127.1743,14.18,100,100,2.06,CA,1722229654
555,vinukonda,16.05,79.75,33.33,49,61,7.13,IN,1722229656
556,sereflikochisar,38.9393,33.5386,19.62,49,0,3.56,TR,1722229657
557,okha,53.5739,142.9478,11.57,90,100,6.98,RU,1722229658
558,phalaborwa,-23.943,31.1411,13.99,87,0,3.84,ZA,1722229659
559,imbituba,-28.24,-48.6703,19.36,98,100,2.1,BR,1722229390
560,roma,43.2128,-75.4557,19.37,91,0,0.0,US,1722229564
561,salahonda,2.1019,-78.7217,26.11,87,85,2.68,CO,1722229663
562,arevalo,41.0626,-4.7204,24.06,45,44,8.16,ES,1722229665
563,la passe,45.5549,-0.8967,22.13,84,3,3.29,FR,1722229666
564,saku,36.2167,138.4833,34.51,36,100,3.04,JP,1722229667
565,burkburnett,34.0979,-98.5706,29.38,65,0,6.17,US,1722229583
566,dickinson,29.4608,-95.0513,28.32,93,40,2.57,US,1722229593
567,den burg,53.0542,4.7972,16.63,88,100,2.06,NL,1722229671
568,guateque,5.0062,-73.4727,9.89,98,38,1.74,CO,1722229672
569,kinel'-cherkassy,53.4706,51.4743,21.59,49,53,2.71,RU,1722229673
570,saint-francois,46.4154,3.9054,17.58,89,0,1.54,FR,1722229676
571,le port,-20.9373,55.2919,23.0,84,0,1.5,RE,1722229677
572,madaoua,14.073,5.96,24.46,79,27,3.88,NE,1722229678
573,kurchum,48.5722,83.6542,29.23,40,29,5.76,KZ,1722229679
574,arvayheer,46.2639,102.775,24.21,32,98,0.72,MN,1722229680
575,samarinda,-0.5,117.15,31.95,59,44,2.06,ID,1722229681
576,vilyuysk,63.7553,121.6247,22.58,63,71,2.01,RU,1722229683
577,starobin,52.7267,27.4606,15.35,72,37,9.76,BY,1722229684
578,bulawayo,-20.15,28.5833,10.68,11,0,3.07,ZW,1722229685
579,petrolina,-9.3986,-40.5008,22.03,73,0,5.66,BR,1722229388
580,palu,-0.8917,119.8707,30.61,73,41,1.94,ID,1722229687
581,lloydminster,53.2835,-110.0016,17.79,59,38,2.2,CA,1722229613
582,aginskoye,51.1,114.53,30.15,37,70,4.25,RU,1722229690
583,woolgoolga,-30.1106,153.2007,16.93,34,1,6.21,AU,1722229691
584,laghouat,33.8,2.8651,26.61,33,4,1.07,DZ,1722229692
585,perm,58.0174,56.2855,13.7,88,100,4.0,RU,1722229693
586,buala,-8.145,159.5921,27.37,78,87,4.28,SB,1722229694
587,calvinia,-31.4707,19.776,0.75,89,6,1.26,ZA,1722229695
588,san patricio,28.017,-97.5169,29.35,84,7,5.82,US,1722229697
589,champerico,14.3,-91.9167,25.0,89,100,4.81,GT,1722229698
